[
  {
    "id": 689558,
    "name": "Vinnytsya",
    "stateName": "Vinnytsia Oblast",
    "countryName": "Ukraine",
    "latitude": 49.23278,
    "longitude": 28.48097
  },
  {
    "id": 709930,
    "name": "Dnipro",
    "stateName": "Dnipropetrovsk Oblast",
    "countryName": "Ukraine",
    "latitude": 48.45,
    "longitude": 34.98333
  },
  {
    "id": 709717,
    "name": "Donetsk",
    "stateName": "Donetsk Oblast",
    "countryName": "Ukraine",
    "latitude": 48.023,
    "longitude": 37.80224
  },
  {
    "id": 686967,
    "name": "Zhytomyr",
    "stateName": "Zhytomyr Oblast",
    "countryName": "Ukraine",
    "latitude": 50.26487,
    "longitude": 28.67669
  },
  {
    "id": 687700,
    "name": "Zaporizhia",
    "stateName": "Zaporizhia Oblast",
    "countryName": "Ukraine",
    "latitude": 47.82289,
    "longitude": 35.19031
  },
  {
    "id": 707471,
    "name": "Ivano-Frankivsk",
    "stateName": "Ivano-Frankivsk Oblast",
    "countryName": "Ukraine",
    "latitude": 48.9215,
    "longitude": 24.70972
  },
  {
    "id": 703448,
    "name": "Kiev",
    "stateName": "Misto Kiev",
    "countryName": "Ukraine",
    "latitude": 50.45466,
    "longitude": 30.5238
  },
  {
    "id": 705812,
    "name": "Kropyvnytskyi",
    "stateName": "Kirovograd Oblast",
    "countryName": "Ukraine",
    "latitude": 48.5,
    "longitude": 32.0
  },
  {
    "id": 702658,
    "name": "Luhansk",
    "stateName": "Luhansk Oblast",
    "countryName": "Ukraine",
    "latitude": 48.56705,
    "longitude": 39.31706
  },
  {
    "id": 702569,
    "name": "Lutsk",
    "stateName": "Volyn Oblast",
    "countryName": "Ukraine",
    "latitude": 50.75932,
    "longitude": 25.34244
  },
  {
    "id": 702550,
    "name": "Lviv",
    "stateName": "Lviv Oblast",
    "countryName": "Ukraine",
    "latitude": 49.83826,
    "longitude": 24.02324
  },
  {
    "id": 700569,
    "name": "Mykolaiv",
    "stateName": "Mykolaiv Oblast",
    "countryName": "Ukraine",
    "latitude": 46.96591,
    "longitude": 31.9974
  },
  {
    "id": 698740,
    "name": "Odessa",
    "stateName": "Odessa Oblast",
    "countryName": "Ukraine",
    "latitude": 46.47747,
    "longitude": 30.73262
  },
  {
    "id": 696643,
    "name": "Poltava",
    "stateName": "Poltava Oblast",
    "countryName": "Ukraine",
    "latitude": 49.59373,
    "longitude": 34.54073
  },
  {
    "id": 695594,
    "name": "Rivne",
    "stateName": "Rivne Oblast",
    "countryName": "Ukraine",
    "latitude": 50.62308,
    "longitude": 26.22743
  },
  {
    "id": 694423,
    "name": "Sevastopol",
    "stateName": "Misto Sevastopol",
    "countryName": "Ukraine",
    "latitude": 44.58883,
    "longitude": 33.5224
  },
  {
    "id": 693805,
    "name": "Simferopol",
    "stateName": "Autonomous Republic of Crimea",
    "countryName": "Ukraine",
    "latitude": 44.95719,
    "longitude": 34.11079
  },
  {
    "id": 692194,
    "name": "Sumy",
    "stateName": "Sumy Oblast",
    "countryName": "Ukraine",
    "latitude": 50.9216,
    "longitude": 34.80029
  },
  {
    "id": 691650,
    "name": "Ternopil",
    "stateName": "Ternopil Oblast",
    "countryName": "Ukraine",
    "latitude": 49.55589,
    "longitude": 25.60556
  },
  {
    "id": 690548,
    "name": "Uzhhorod",
    "stateName": "Zakarpattia Oblast",
    "countryName": "Ukraine",
    "latitude": 48.61667,
    "longitude": 22.3
  },
  {
    "id": 706483,
    "name": "Kharkiv",
    "stateName": "Kharkiv Oblast",
    "countryName": "Ukraine",
    "latitude": 49.98081,
    "longitude": 36.25272
  },
  {
    "id": 706448,
    "name": "Kherson",
    "stateName": "Kherson Oblast",
    "countryName": "Ukraine",
    "latitude": 46.65581,
    "longitude": 32.6178
  },
  {
    "id": 706369,
    "name": "Khmelnytskyi",
    "stateName": "Khmelnytskyi Oblast",
    "countryName": "Ukraine",
    "latitude": 49.42161,
    "longitude": 26.99653
  },
  {
    "id": 710791,
    "name": "Cherkasy",
    "stateName": "Cherkasy Oblast",
    "countryName": "Ukraine",
    "latitude": 49.42854,
    "longitude": 32.06207
  },
  {
    "id": 710719,
    "name": "Chernivtsi",
    "stateName": "Chernivtsi Oblast",
    "countryName": "Ukraine",
    "latitude": 48.29149,
    "longitude": 25.94034
  },
  {
    "id": 710735,
    "name": "Chernihiv",
    "stateName": "Chernihiv Oblast",
    "countryName": "Ukraine",
    "latitude": 51.50551,
    "longitude": 31.28487
  }
]